{
  "cities": [
    {
      "cityName": "Lisbon",
      "country": "Portugal",
      "emoji": "ðŸ‡µðŸ‡¹",
      "date": "2027-10-31T15:59:59.138Z",
      "notes": "My favorite city so far!",
      "position": {
        "lat": 38.727881642324164,
        "lng": -9.140900099907554
      },
      "id": "73930385"
    },
    {
      "cityName": "Berlin",
      "country": "Germany",
      "emoji": "ðŸ‡©ðŸ‡ª",
      "date": "2027-02-12T09:24:11.863Z",
      "notes": "Amazing ðŸ˜ƒ",
      "position": {
        "lat": 52.53586782505711,
        "lng": 13.376933665713324
      },
      "id": "98443197"
    },
    {
      "id": "a94e",
      "cityName": "Hassleholm",
      "country": "Sweden",
      "emoji": "ðŸ‡¸ðŸ‡ª",
      "date": "2024-03-27T08:17:22.132Z",
      "position": {
        "lat": "56.15888727476656",
        "lng": "13.996582031250002"
      }
    },
    {
      "id": "9601",
      "cityName": "Siikalatva sub-region",
      "country": "Finland",
      "emoji": "ðŸ‡«ðŸ‡®",
      "date": "2024-03-27T08:34:07.387Z",
      "position": {
        "lat": "64.25147298342947",
        "lng": "26.279296875000004"
      }
    },
    {
      "id": "a7f4",
      "cityName": "Redhill",
      "country": "United Kingdom of Great Britain and Northern Ireland (the)",
      "emoji": "ðŸ‡¬ðŸ‡§",
      "date": "2024-03-27T14:54:43.001Z",
      "position": {
        "lat": "51.22195661036564",
        "lng": "-0.16935166736577578"
      }
    },
    {
      "id": "5335",
      "cityName": "Lobzenica",
      "country": "Poland",
      "emoji": "ðŸ‡µðŸ‡±",
      "date": "2024-03-27T20:02:43.143Z",
      "position": {
        "lat": "53.25415099481834",
        "lng": "17.16966954173658"
      }
    }
  ]
}