{
  "cities": [
    {
      "cityName": "Lisbon",
      "country": "Portugal",
      "emoji": "ðŸ‡µðŸ‡¹",
      "date": "2027-10-31T15:59:59.138Z",
      "notes": "My favorite city so far!",
      "position": {
        "lat": 38.727881642324164,
        "lng": -9.140900099907554
      },
      "id": "73930385"
    },
    {
      "cityName": "Madrid",
      "country": "Spain",
      "emoji": "ðŸ‡ªðŸ‡¸",
      "date": "2027-07-15T08:22:53.976Z",
      "notes": "",
      "position": {
        "lat": 40.46635901755316,
        "lng": -3.7133789062500004
      },
      "id": "17806751"
    },
    {
      "cityName": "Berlin",
      "country": "Germany",
      "emoji": "ðŸ‡©ðŸ‡ª",
      "date": "2027-02-12T09:24:11.863Z",
      "notes": "Amazing ðŸ˜ƒ",
      "position": {
        "lat": 52.53586782505711,
        "lng": 13.376933665713324
      },
      "id": "98443197"
    },
    {
      "id": "f3dd",
      "cityName": "Nefiach",
      "country": "France",
      "emoji": "ðŸ‡«ðŸ‡·",
      "date": "2024-03-27T08:17:13.979Z",
      "position": {
        "lat": "42.68412799904818",
        "lng": "2.6806640625"
      }
    },
    {
      "id": "a94e",
      "cityName": "Hassleholm",
      "country": "Sweden",
      "emoji": "ðŸ‡¸ðŸ‡ª",
      "date": "2024-03-27T08:17:22.132Z",
      "position": {
        "lat": "56.15888727476656",
        "lng": "13.996582031250002"
      }
    },
    {
      "id": "1e19",
      "cityName": "Grytdalen",
      "country": "Norway",
      "emoji": "ðŸ‡³ðŸ‡´",
      "date": "2024-03-27T08:17:25.743Z",
      "position": {
        "lat": "59.244044190355474",
        "lng": "8.635253906250002"
      }
    }
  ]
}