{
  "cities": [
    {
      "cityName": "Lisbon",
      "country": "Portugal",
      "emoji": "ðŸ‡µðŸ‡¹",
      "date": "2027-10-31T15:59:59.138Z",
      "notes": "My favorite city so far!",
      "position": {
        "lat": 38.727881642324164,
        "lng": -9.140900099907554
      },
      "id": "73930385"
    },
    {
      "cityName": "Madrid",
      "country": "Spain",
      "emoji": "ðŸ‡ªðŸ‡¸",
      "date": "2027-07-15T08:22:53.976Z",
      "notes": "",
      "position": {
        "lat": 40.46635901755316,
        "lng": -3.7133789062500004
      },
      "id": "17806751"
    },
    {
      "cityName": "Berlin",
      "country": "Germany",
      "emoji": "ðŸ‡©ðŸ‡ª",
      "date": "2027-02-12T09:24:11.863Z",
      "notes": "Amazing ðŸ˜ƒ",
      "position": {
        "lat": 52.53586782505711,
        "lng": 13.376933665713324
      },
      "id": "98443197"
    },
    {
      "id": "e180",
      "cityName": "Wamba",
      "country": "Spain",
      "notes": "gfsdgd",
      "emoji": "ðŸ‡ªðŸ‡¸",
      "date": "2024-02-29T07:47:35.000Z",
      "position": {
        "lat": "41.70732865702842",
        "lng": "-4.899902343750001"
      }
    },
    {
      "id": "ad49",
      "cityName": "Fonni",
      "country": "Italy",
      "notes": "Itallllyyyyy",
      "emoji": "ðŸ‡®ðŸ‡¹",
      "date": "2024-01-28T07:51:48.000Z",
      "position": {
        "lat": "40.06430997680276",
        "lng": "9.294433593750002"
      }
    }
  ]
}